name,lat,lon,azimuth,fov,render,url,page_url,notes
Airport Cam (163-05-01),38.7431,-90.3651,,,,,,Lambert-St. Louis Int'l Airport terminal area; viewing Southwest gates. Azimuth TBD
100 Above the Park (163-03-01),38.6440,-90.2635,,,,,,100 N Kingshighway high-rise on E edge of Forest Park; PTZ that pans rarely — observed Arch (ESE) / due S / Forest Park golf course (SW). Cone TBD
Chesterfield (163-01-01),38.6523,-90.5608,,,,,,360 PTZ atop Drury hotel; no fixed cone
Edwardsville IL (163-07-01),38.8116,-89.9558,290,90,,,,Fixed per user notes
Arnold MO (163-08-01),38.4442,-90.3777,202,20,,,,ASSUMED camera location pointed at Arnold water tower; confirm these coords are the camera not the tower
